"Project","Address","Province","District","Municipality","Capacity","River","License No","Issued Date","Validity Date","Promoter","Longitude","Latitude","License_type"
"Ankhu Khola","P.O. Box 19554, Kathmandu, Nepal, Phone no 4033752, 4033753, email: ankhuhp@gmail.com","3","NUWAKOT","Kispang","42.9","Ankhu Khola","184","2073/10/27","2108/10/26","Ankhu Hydropower Pvt. Ltd","84.99916667","28.09166667","Generation"
"Badigad HPP","P. O. Box : 4610, Panipokhari , Kathmandu, Phone: 01-4435485, Fax: 01-4435485","4","BAGLUNG","Dhorpatan","6.6","Badigad","129","2071/9/17","2106/9/16","Water and Energy Nepal Pvt Ltd","83.17291667","28.32875","Generation"
"Bagmati Nadi","Kamaladi 13,Kathmandu.Tel no. 4169088","3","LALITPUR","Konjyosom","22","Bagmati","125","2071/3/19","2106/3/18","Mandu Hydropower Pvt. Ltd.","85.24208333","27.52375","Generation"
"Balephi","GPO Box:772, Kathmandu Ph. No. 01-4224074,4428732, Fax:01-4266133","3","SINDHUPALCHOK","Jugal","23.52","Balephi","191","2073/12/16","2108/12/15","Balephi Jalbidhut Company Ltd","85.75833333","27.87833333","Generation"
"Balephi A","Kamaladi, Kathmandu, Phone 01-4474328,4462844","3","SINDHUPALCHOK","Jugal","10.6","Balephi","132","2072/1/6","2107/1/5","Moonlight Hydropower Company Pvt. Ltd.","85.76263889","27.85416667","Generation"
"Bijaypur Khola-2 HPP","Lekhanath Nagarpalika, Phone no 0610465562, email : civilhydropower@gmail.com","4","KASKI","Pokhara Lekhnath","4.5","Bijaypur","166","2073/4/25","2108/4/24","Civil hydropower company","84.03833333","28.16486111","Generation"
"Buku Khola","Lalitpur, phone: 5201375","3","RAMECHHAP","Umakunda","6","Buku","216","2074/9/25","2109/9/24","Apolo Hydropower Pvt.Ltd","86.36236111","27.51972222","Generation"
"Buku-Kapati Hydropower Project","Baluwatar-4, Kathmadu. PO Box : 20762, Phone no 4167507, 6911637","1","SOLUKHUMBU","Solududhakunda","5","Buku","203","2074/5/8","2109/5/7","Him Star Urja Company Pvt. Ltd.","86.38944444","27.51111111","Generation"
"Chauri Khola","Anamnagar-32 , KTM, Ph: 014102696, Fax 4102696, email - chaurihydro@gmail.com","3","DOLAKHA","Bhimeshwor","5","Chauri","156","2073/1/14","2108/1/13","Chauri Hydropower P Ltd","85.87652778","27.60763889","Generation"
"ChulepuKhola Hydropower Project","Madhyapur Thimi 15, Kausaltar,Bhaktapur 6630660,9851088190","3","RAMECHHAP","Umakunda","8.52","Chulepu,Dhunde Khola","155","2073/1/13","2108/1/12","Chandeswari Mahadev Khola Micro Hydro Com.P.Ltd.","86.28069444","27.50527778","Generation"
"Daram Khola HEP","Baglung, Nepal Phone: 9851012086, 9857622240, 068-690939, email : daramkholahydroenergy@gmail.com","5","GULMI","Musikot","7.3","Daram","183","2073/10/23","2108/10/22","Daram Khola Hydro Energy Limited","83.33930556","28.19583333","Generation"
"Daraundi-1","Babarmahal, Kathmandu. Po. Box no 21287, Phone no 44442330, Email durga_amagain@yahoo.com","4","GORKHA","Aarughat","10","Daraundi","158","2073/2/26","2108/2/5","Diamond Hydropower Pvt. Ltd","84.65722222","28.07763889","Generation"
"Dhansi Khola Mini","Lazimpat-2, House No: 86, Kathmandu, P.O. Box: 8643, Tel: 9841259058","5","ROLPA","Rolpa","0.996","Dhansi","0","2067/7/30","0/0/1","M/S Teleye Samyak Hydropower Co. Pvt. Ltd. ( Anand Pradhan)","82.64486111","28.32","Generation"
"Dhunge - Jiri","Sanepa Lalitpur, Phone 01-5522297, 9841262909","3","DOLAKHA","Gaurishankar","0.6","Dhunge Khola","0","2070/3/24","0/0/1","Dronachal Hydropower Company Pvt. Ltd.","86.23055556","27.63652778","Generation"
"Dordi Khola","POB 8975 EPC 4205 Marajaganj,Kathmandu,nepal Phoneand Fax: 4375874","4","LAMJUNG","Sundarbazar","27","Dordi","48","2068/3/23","2103/3/22","Himalaya Power Partner Pvt. Ltd","84.45416667","28.19611111","Generation"
"Dordi-1","Tripushwor, Kathmandu, P.O. Box: 20290, Ph:4232748, 4232749, Fax: 4232750","4","LAMJUNG","Dordi","10.3","Dordi","82","2069/10/12","2104/10/11","Dordi Khola Jalvidyut Company Limited","84.46388889","28.23944444","Generation"
"Down Piluwa","P.O.Box, 14165, Anamnagar, Kathmandu, Phone 01-4238159, Fax 01-4102651","1","SANKHUWASABHA","Panchakhapan","9.5","Piluwa Khola","113","2070/11/4","2105/11/3","River Falls Hydropower Development P. Ltd.","87.28472222","27.24583333","Generation"
"Durbang Myagdi Khola","Kathmandu-6,, Banasthali, Phone no 4353348, 9851044986","4","MYAGDI","Mangala","25","Myagdi Khola","130","2071/11/4","2106/11/3","Dhaulagiri Kalika Hydropower P Ltd","83.40694444","28.41458333","Generation"
"Gelun Khola HPP","Baneswar, Kathmandu Tel: 4492150","3","SINDHUPALCHOK","Barhabise","3.2","Gelun","93","2070/2/6","2105/2/5","Gelun Khola Hydropower Company Pvt Ltd","85.79791667","27.83472222","Generation"
"Ghalemdi Khola","P.O.Box 9560, Banasthatli, Kathmandu; Tel. 014362520; 69521079; ghalemdi@gmail.com","4","MYAGDI","Annapurna","5","Ghalemdi","110","2070/9/14","2105/9/13","Ghalemdi Hydro Limited","83.6875","28.53333333","Generation"
"Ghar Khola","Pardi Pokhara, Phone 061-463429","4","MYAGDI","Annapurna","8.3","Ghar","137","2072/3/11","2107/3/10","Myagdi Hydropower Pvt. Ltd.","83.65277778","28.46736111","Generation"
"Ghatte Khola","P.O.Box. 8020, Kathmandu,4785771","3","DOLAKHA","Gaurishankar","5","Ghatte Khola","138","2072/3/24","2107/3/23","Mankamana Engineering HP","86.29652778","27.78041667","Generation"
"Gohare (Ichowk) SHP","Ratopul, Kathmandu, Phone no 9851120651","3","SINDHUPALCHOK","Panchpokhari Thangpal","0.95","Gohora","0","2074/12/8","0/0/1","Ichowk Hydropower Pvt. Ltd.","85.50763889","27.94333333","Generation"
"Gulandi Khola SHP","Pokhara-11, Kaski, Phone: 9856029779","4","BAGLUNG","Jaimuni","0.98","Gulandi","0","2075/2/16","0/0/1","Jhilimili Hydropower Company Pvt. Ltd.","83.55361111","28.06708333","Generation"
"Hewa A Small HEP","01-4469808, 9841531682","1","PANCHTHAR","Yangwarak","5","Hewa Khola","235","2075/4/14","2110/4/13","Habitat Power Company Pvt. Ltd","87.86875","27.18583333","Generation"
"Idi Khola SHP","P.O.Box: 2838 mobile 9851018118 Email: idihydro@gmail.com","4","KASKI","Madi","0.975","Idi Khola","0","2072/12/1","0/0/1","Idi Hydropower Co.P. Ltd.","84.11638889","28.23263889","Generation"
"Irkhuwa Khola-B HPP","House No 171/16 Anamnagar, Gautam Buddha MargaKathmandu , Tel : 4255190, email info@barahamultipower.com","1","SANKHUWASABHA","Chichila","15.524","Irkhuwa Khola","222","2074/11/3","2109/11/2","Barah Multi Power Pvt Ltd","87.08166667","27.40875","Generation"
"Istul Khola HPP","Man Bhavan , Lalitpur -20, PO- 134,Tel: 01-5552175","4","GORKHA","Sulikot","1.506","Istul","210","2074/8/14","2109/8/13","Amar Jyoti Hydropower Pvt Ltd","84.75833333","28.08486111","Generation"
"Iwa Khola","Trade Tower Building, Thapathali ,Katmandu Tel no 01 5111015","1","TAPLEJUNG","Sirijangha","9.9","Iwa Khola","139","2072/3/28","2107/3/27","Rairang Hydropower Development Co Ltd","87.84986111","27.28194444","Generation"
"Jeuli Gad","P.O.Box 23330, Kathmandu, Phone 01-4377462","7","BAJHANG","Talkot","0.996","Jeuli and Bauli","0","2072/3/22","0/0/1","Rangunkhola Hydropower Pvt.Ltd.","81.15527778","29.59375","Generation"
"Jumdi Khola Small","Old Baneshwor, Kathmandu-34, Mobile: 9841662955","5","GULMI","Kaligandaki","1.75","Jumdi","52","2068/7/7","2103/7/6","Jumdi Hydropower Pvt. Ltd.,","83.45222222","28.03458333","Generation"
"Junbeshi","Tinkune, Koteswor, Kathmandu, P.O.Box 23746, Phone 01-4486911","1","SOLUKHUMBU","Solududhakunda","5.2","Junbeshi","80","2069/9/20","2104/9/19","Dobhan Hydropower Pvt.Ltd.","86.55958333","27.56986111","Generation"
"Kabeli B - 1","Baneshwor, Ktm, P.O. Box: 11039, Ph: 01-4109801, 4475234, Fax: 4474895","1","TAPLEJUNG","Yangwarak","25","Kabeli Khola","98","2070/3/28","2105/3/27","Arun Kabeli Power Limited.","87.80972222","27.28","Generation"
"Kabeli-A","Budhanagar, GPO Box: 11728, Kathmandu Tel: 4781776","1","TAPLEJUNG","Sirijangha","37.6","Kabeli Khola","70","2069/5/21","2104/5/20","Kabeli Energy Limited","87.72291667","27.26013889","Generation"
"Kalanga","Sukedhara, Kathmandu, Po. Box. No. 21399, Phone No. 01-4116052, 01-4116053, Email: info.kghep@gmail.com","7","BAJHANG","Bungal","15.33","Kalanga Gad","151","2072/12/14","2107/12/13","Kalanga Hydropower P Ltd","80.87916667","29.54069444","Generation"
"Kali Gandaki-Kowan","P.O. Box no 8975 EPC 1834, Phone no 5000300","4","MUSTANG","Thasang","400","Kali Gandaki","167","0/0/1","2103/4/30","Ambeswor Engineering Hydropower Pvt. Ltd","83.62791667","28.65208333","Generation"
"Kaligandaki Upper","PO. Box no. 5771, Babarmahal, Kathmandu, Tel No. 4244408","4","MYAGDI","Annapurna","65","Kali Gandaki","220","2074/10/24","2109/10/23","Tradelink Global P. Ltd","83.59333333","28.40472222","Generation"
"Kapadigad","Dhunga Adda, Tinthana-7,KTM, 014316325","7","KAILALI","Chure","3.3","Kapadigad","111","2070/9/14","2105/9/13","Salmanidevi Hydropower Pvt Ltd","80.76736111","29.01041667","Generation"
"Kasuwa Khola HPP","Tripureshwor, Kathmandu, Tel: 4101140, 4251080, email: info@kasuwakhola.com.np","1","SANKHUWASABHA","Makalu","45","Kasuwa","213","2074/9/3","2109/9/2","Kasuwa Hydropower Ltd","87.28277778","27.60555556","Generation"
"Khani Khola (Dolakha)","Kuleshwor, P. O. Box: 8856, Kathmandu, Nepal. Ph: 4227646, 4220842, Mobile No.: 9851020234","3","DOLAKHA","Gaurishankar","30","Khani Khola","92","2070/2/10","2105/2/9","Sasha Engineering Hydropower P. Ltd","86.30694444","27.80111111","Generation"
"Khani Khola - 1","P.O.Box 3970, Kathmandu, Phone 01-5010712,Fax- 5010694","3","DOLAKHA","Gaurishankar","40","Khani Khola","46","2068/1/28","2103/1/27","Green Life Energy Pvt.Ltd,Sirin Bhawan, Lalitpur-1, Kupakdole","86.35","27.81888889","Generation"
"Khare Hydropower Project","Sinamangal, Kathmandu, Tel; 4462856, fax: 4462856","3","DOLAKHA","Gaurishankar","24.1","Khare","122","2071/1/21","2106/1/20","Constorium Power Developers Pvt Ltd","86.26666667","27.78","Generation"
"Khatyat Khola SHP","Shukdhik VDC, Mugu, Tel: 9848082036, P.O. Box: 20506","6","MUGU","Khatyad","0.5","Khatyat","0","2073/8/9","0/0/1","Shrijanshil Krishi Sahakari Sanstha Ltd,","81.85625","29.51111111","Generation"
"Khimti II","Shanti Nagar -34, Kathamandu, P.O.Box 10242, Phone 01-4781891, Fax 01-4781891","3","DOLAKHA","Tamakoshi","48.8","Khimti Khola","179","2073/9/22","2108/9/21","Peoples Hydro sahakari Sastha Limited","86.19861111","27.56944444","Generation"
"Khorunga Khola","P.O. Box: 516 , Khumaltar, Lalitpur, Nepal. Ph: 5550505","1","TERHATHUM","Menchayam","4.8","Khoranga Khola","87","2069/12/29","2104/12/28","Reliable Hydropower Company. P. Ltd","87.54486111","27.17097222","Generation"
"Kule Khani Third","0","3","MAKAWANPUR","Bhimphedi","14","Kulekhani","24","2064/12/17","2099/12/16","Nepal Electricity Authority","85.04166667","27.4875","Generation"
"Langtang Khola Small Hydropower Project","P.O.Box 10242 Kathmandu 10, Phone 01 4781891 email langtangkhola@gmail.com","3","RASUWA","Gosaikunda","10","Langtang","142","2072/6/1","2107/5/31","Multi Energy Development Pvt. Ltd.","85.35680556","28.1575","Generation"
"Lankhuwa Khola","P.O. Box. 13901, Kusanti, Lalitpur, Tel: 9849447747","1","SANKHUWASABHA","Chichila","5","Lankhuwa","200","2074/3/28","2109/3/27","Sabhapokhri Hydropower Pvt Ltd","87.29583333","27.43541667","Generation"
"Lapche Khola","Laxman Babu Bhawan, Naxal, Kathmandu, Phone no 4414355, 4414651, 9801012101, email: info@mvdugarhydro.com","3","DOLAKHA","Bigu","160","Lapche","212","2074/9/2","2109/9/1","Nasa Hydropower Company P Ltd","86.19138889","28.01513889","Generation"
"Likhu -1","Ph. 01-4244352, 1815/105 Kantipath, Kathmandu","1","SOLUKHUMBU","Likhupike","77","Likhu Khola","145","2072/6/22","2107/6/21","Pan Himay Energy Pvt. Ltd","86.45","27.63819444","Generation"
"Likhu -2","Kantipath, Kathmandu, Phone no 4225009","1","SOLUKHUMBU","Likhupike","55","Likhu Khola","146","2072/6/22","2107/6/21","Global Hydropower Associate Pvt. Ltd","86.40597222","27.58736111","Generation"
"Likhu Khola 'A'","P.O.Box 4286 Kathmandu, Phone 014478774","1","SOLUKHUMBU","Likhupike","51","Likhu Khola","148","2072/7/16","2107/7/15","Numbur Himalaya Hydropower Pvt. Ltd","86.37152778","27.54458333","Generation"
"Likhu-4","P.O.Box 772, Triveni Complex Putalisadak kathmandu, Ph 5544736","3","RAMECHHAP","Gokulganga","52.4","Likhu Khola","59","2068/11/28","2098/11/27","Green Ventures Pvt. Ltd","86.29166667","27.45819444","Generation"
"Liping Khola","RR Complex, 4th Floor, Narayan Chaur, Naxal, Kathmandu; Tel: 4441535, Fax: 44435714; P.O. Box: 3797","3","SINDHUPALCHOK","Bhotekoshi","16.26","Liping","164","2073/4/12","2108/4/11","Him River Power Pvt. Ltd","85.95194444","27.97930556","Generation"
"Lohare Khola","Anamnagar, Kathmandu, POBox 5558, Phone 9841461609","6","KALIKOT","Mahawai","4.2","Lohore Khola","105","2070/6/8","2105/6/7","Lohare Khola Hydropower Co. P. L.,","81.80527778","28.90597222","Generation"
"Lower Chhote Khola Small HPP","Po. Box no 20968, Kathmandu-16, Kaaldhara, Phone: 4380505","4","GORKHA","Aarughat","0.997","Chhote","0","2073/4/16","0/0/1","Pashupati Environmental Power Company Pvt. Ltd.","84.88541667","28.17236111","Generation"
"Lower Chirkhuwa","P.O.Box 19387, Kathmandu, Phone 01-4770297","1","SANKHUWASABHA","Khandbari","4.06","Chirkhuwa","196","2074/2/22","2109/2/21","Chirkhuwa Hydropowerr Pvt. Ltd.","87.12527778","27.37930556","Generation"
"Lower Hewa","P.O. Box: 3970, New Baneshwor, Kathmandu, Nepal. Ph: 015525184, 4299844, Fax 01-5525184","1","PANCHTHAR","Phidim","21.6","Hewa Khola","99","2070/4/9","2105/4/8","Mountain Hydro Nepal (P.) Ltd","87.75638889","27.16","Generation"
"Lower Irkhuwa Khola","Ghattekulo Kathmandu 32, P.O.Box. 19387, Phone 01-5172685, email: irkhuwa@gmail.com","1","SANKHUWASABHA","Chichila","14.15","Irkhuwa Khola","219","2074/10/23","2109/10/23","Lower Irkhuwa HP Co PL","87.11402778","27.41555556","Generation"
"Lower Khare","Thapathali KTM, POB : 13961, Ph no: 014261827, 4252216","3","DOLAKHA","Gaurishankar","11","Khare","64","2069/3/19","2104/3/18","Universal Power Company P. Ltd","86.21208333","27.75597222","Generation"
"Lower Khorunga","Heritedge Plaza, Kathmandu, Phone no 4169116, 4169117, Fax no 4169118, Emai info@idsenergy.com","1","TERHATHUM","Phedap","5.5","Khoranga Khola","165","2073/4/12","2108/4/11","IDS Energy Pvt. Ltd","87.55861111","27.14041667","Generation"
"Lower Likhu","P.O.Box. 439, Naxal, Kathmandu, Phone 01-4415314, 4446442, Fax 01-44412777","3","RAMECHHAP","Umakunda","28.1","Likhu Khola","154","2072/12/28","2107/12/27","Swaita Ganga Hydropower and Construction Pvt. Ltd.","86.24097222","27.40513889","Generation"
"Lower Midim Khola SHP","Tirlingtar-7, Kathmandu, Tel: 4386514","4","LAMJUNG","Sundarbazar","0.996","Midim Khola","0","2071/7/19","0/0/1","Tallo Midim Jalbidhyut Company Pvt. Ltd.","84.27138889","28.17402778","Generation"
"Lower Modi Khola","Naxal Sanogaucharan, Tel: 4441131, Fax: 4441973","4","PARBAT","Modi","20","Modi Khola","38","2067/5/21","2102/5/20","Modi Energy Pvt . Ltd","83.72680556","28.25361111","Generation"
"Lower Modi-II Cascade HPP","BYS Complex, Kathmandu, Tel: 4350147 Fax: 4350379, email: unitedmodi@ntc.nt.np","4","PARBAT","Kushma","10.5","Modi Khola","195","2074/2/9","2109/2/8","United Modi Hydropower Pvt Ltd","83.68791667","28.21027778","Generation"
"Lower Selang Khola","Tangal, Kathmandu : 4410160","3","SINDHUPALCHOK","Jugal","1.475","Selang","208","2074/6/29","2109/6/28","Sewa Hydrolink Company","85.74194444","27.85944444","Generation"
"Lower Solu Hydropower Project","R R Bhavan, Narayanchaur, Kathmandu, Tel; 4261827, Fax: 4260266","1","SOLUKHUMBU","Dudhkoshi","82","Solu Khola","118","2070/12/5","2105/12/4","Essel Clean Solu Hydropower Pvt Ltd","86.60069444","27.42916667","Generation"
"Lower Tadi","Kantipath Kathmandu, Phone 01-4248228, Fax 01-4244474","3","NUWAKOT","Tadi","4.993","Tadi Khola","88","2069/12/27","2104/12/26","Buddha Bhumi Nepal Hydropower Co. Pvt. ltd.","85.36638889","27.92291667","Generation"
"Ludee Khola SHP","GPO Box:6709, Kathmandu Tel 9841357478","4","GORKHA","Sulikot","0.75","Ludi","0","2073/3/17","0/0/1","Ludi Hydropower Development Company Pvt Ltd","84.60222222","27.95319444","Generation"
"Madhya Bhotekoshi","Maharajganj Kathmandu, P.O.Box. 23599, Phone 01-4721641, 4721642, Fax 01-4721643","3","SINDHUPALCHOK","Bhotekoshi","102","Bhote koshi","108","2070/8/18","2105/8/17","Madhya Bhotekoshi Jalbidyut Company Ltd.","85.88777778","27.85111111","Generation"
"Madi-Bhorletar","Baluwatar, Kathmandu, Phone no 4444797, 9851138808","4","LAMJUNG","Besishahar","10","Madi Khola","171","2073/6/10","2108/6/9","Kalash Hydropower P. Ltd","84.2225","28.14875","Generation"
"Mai Beni HPP","Baneshwor 10, Kathmandu, Phone no 9851018025, 5539135, 5525228","1","ILAM","Suryodaya","9.51","Mai Khola","228","2075/1/6","2110/1/5","Samling Power company Pvt.Ltd","87.95111111","26.90694444","Generation"
"Makari gad","Panipokhari, Kathmandu, Phone no 4442048, 4414714, email : makarigad@gmail.com","7","DARCHULA","Apihimal","10","Makari gad","170","2073/5/27","2108/5/26","Makarigad Hydropower Pvt. Ltd","80.85875","29.79125","Generation"
"Marsyangdi Besi","Bagdol Lalitpur, P.O.Box 23311, Phone no 5552175","4","LAMJUNG","Besishahar","50","Marsyangdi","206","2074/6/1","2109/5/31","Divyajyoti Hydropower Pvt. Ltd.","84.38263889","28.23333333","Generation"
"Maya Khola Hydropower Project","126 Milap Marg, Bisalnagar, Kathmandu, Nepal. P.O.Box: 8975, EPC: 5602, Tel: 4417947, Fax; 977-1-4433610","1","SANKHUWASABHA","Chainpur","14.9","Maya","123","2071/2/26","2106/2/25","Maya Khola Hydropower Company pvt Ltd","87.34152778","27.24513889","Generation"
"Mewa Khola Hydropower project","Anamnagar, Kathmandu, Tel: 4770245, Fax: 4771109","1","TAPLEJUNG","Phungling","50","Mewa Khola","201","2074/4/15","2109/4/14","United Mewa Khola Hydropower Pvt Ltd","87.61597222","27.425","Generation"
"Middle Daram Khola-A HPP","Baglung","4","MYAGDI","Mangala","3","Daram","230","2075/2/9","2110/2/8","Dhaulagiri Cem Engineering Pvt Ltd","83.42388889","28.27194444","Generation"
"Middle Daram Khola-B HPP","Baglung-11, Mobile 9745025919","4","BAGLUNG","Kanthekhola","4.5","Daram","231","2075/2/9","2110/2/8","Dhaulagiri CEM Engineering Pvt. Ltd.","83.42388889","28.24986111","Generation"
"Middle Midim","Dhapasi-7, Tirlingtar, Kathmandu, Phone 01-4386514","4","LAMJUNG","Besishahar","3.1","Midim Khola","100","2070/4/10","2105/4/9","Madhya Midim Jalvidhyut Company Pvt. Ltd.","84.27402778","28.22027778","Generation"
"Middle Modi","P.O.Box: 12268, Nepal. Ph:4038030, Fax:4038026","4","KASKI","Annapurna","15.1","Modi Khola","93","2070/3/7","2105/3/6","Middle Modi Hydropower Limited","83.76777778","28.29847222","Generation"
"Middle Sunkoshi","P.O.Box 8965 EPC 5518 Kathmandu, Phone 01-4429399","3","SINDHUPALCHOK","Bhotekoshi","3.4","Sun Koshi","189","2073/12/13","2108/12/12","Lama Hydropower Pvt. Ltd.","85.94861111","27.78458333","Generation"
"Middle Tamor","Dhumbarahi, Kathmandu, Phone no 437228/437030, email: sanima@sanimahydro.com","1","TAPLEJUNG","Phaktanglung","54","Tamor","198","2074/2/22","2109/2/21","Sanima Middle Tamor Hydropower Ltd","87.68902778","27.40666667","Generation"
"Middle Tara Khola SHP","Baglung-2, Phone No. : 068-520221, 9747628615","4","MYAGDI","Beni","1.7","Tara Khola","190","2073/12/13","2108/12/12","Pahadi Hydropower Company Pvt. Ltd.","83.39361111","28.32430556","Generation"
"Midim Khola Micro Hydro","Ishaneshwor-9, Karaputar, Lamjung","4","LAMJUNG","Sundarbazar","0.1","Midim Khola","0","2069/4/14","0/0/1","Deurali Bahu-uddesyiaya Sahakari Sanstha Limited","84.24152778","28.16347222","Generation"
"Mristi Khola","Thamel, Kathmandu-29, Nepal POB 3839, Phone:203334, Fax:4499898","4","MYAGDI","Annapurna","42","Mristi","53","2068/7/20","2103/7/19","Robust Energy Ltd.","83.66555556","28.51902778","Generation"
"Namarjun Madi","P.O. Box No.: 20225, Lazimpat, Kathmandu, Phone: 01-4441216, Fax: 01-4441217","4","KASKI","Madi","12","Madi Khola","78","2069/9/11","2104/9/10","Himalayan Hydropower Pvt.Ltd","84.09277778","28.30777778","Generation"
"Nilgiri Khola","Panipokhari, Kathmandu, Phone: 4437705, 4441648","4","MUSTANG","Thasang","38","Nilgiri","202","0/0/1","2109/4/30","Nilgiri Khola Hydropower Company Pvt. Ltd.","83.69166667","28.58847222","Generation"
"Nwa Gad","Devkota Marga 426/20, New Baneshwor, Kathmandu, Phone no 4104490","7","DARCHULA","Marma","1","Nwa Gad","0","2074/10/8","0/0/1","Jal Urja Pvt. ltd","80.81041667","29.73944444","Generation"
"Nyadi Khola","P.O.Box. 11728, Kathmandu, Phone 01-4781776, 4784026, Fax 01-4780994","4","LAMJUNG","Marsyangdi","30","Nyadi","83","2069/11/3","2104/11/2","Nyadi Hydropower Limited","84.44513889","28.33708333","Generation"
"Nyam Nyam","Sanepa, Phone no 5184273, 5184173, email nyamnyamkshp@gmail.com","3","RASUWA","Uttargaya","6","Nyam Nyam Khola","217","2074/9/28","2109/9/27","Nyam Nyam HydroPower Company Pvt.Ltd.","85.19791667","28.07847222","Generation"
"Padam Khola SHP","Baneshwor, Kathmandu, Phone no 4105021, 97510001589, 9851003846, emai: info@doltipower.com.np","6","DAILEKH","Naumule","4.8","Padam Khola","207","2074/6/29","2109/6/28","Dolti Power Company P. Ltd","81.83902778","28.90861111","Generation"
"Parajuli Khola-1","Sitapaila - 2, kathmandu, Ph: 01-4033016, 9841209736","6","DAILEKH","Dungeshwor","2.15","Parajuli Khola","102","2070/5/3","2105/5/2","Rara Hydropower Development Co.","81.7075","28.70736111","Generation"
"Phalakhu Khola HPP","GPO Box: 8003, Kathmandu,Tel; 4880041","3","RASUWA","Naukunda","5","Phalankhu Khola","161","2073/3/24","2108/3/23","Rasuwa Hydropower Company Pvt Ltd","85.26194444","27.98597222","Generation"
"Phalakhu Khola HPP","Thulo Bharyang, Kathmandu-15, Phone no 4002566, P.O. Box no 8003","3","RASUWA","Naukunda","14.7","Phalankhu Khola","162","2073/4/10","2108/4/9","Betrawati Hydroelectric Co. Ltd","85.29305556","28.02013889","Generation"
"Pikhuwa Khola","Kathmandu, Phone 01-4495459","1","BHOJPUR","Bhojpur","5","Pikhuwa","45","2067/12/7","2102/12/6","Eastern Hydropower P Ltd","87.02277778","27.15986111","Generation"
"Rahughat","0","4","MYAGDI","Raghuganga","40","Rahughat","49","2068/4/3","2103/4/2","Nepal Electricity Authority","83.54833333","28.40083333","Generation"
"Rahughat Mangale","Sanepa Lalitpur, P.O.Box. 6341, Phone 01-5555573, Fax 01-5555574, 9851041573","4","MYAGDI","Raghuganga","37","Rahughat","175","2073/7/29","2108/7/28","Tundi Power Company P.Ltd.","83.51277778","28.50277778","Generation"
"Rasuwa Bhotekoshi","Sitapaila, Kathmandu, Tel no 9810157778, 9843077976, email langtangproject@gmail.com, liaoxiangi@hotmail.com","3","RASUWA","Gosaikunda","120","Bhote koshi","223","2074/11/3","2109/11/2","Langtang Bhotekosi Hydropower Company Pvt. Ltd","85.35416667","28.20472222","Generation"
"Rasuwagadhi","Gyaneswor Kathmandu, P.O.Box 25210, Phone 014439163, 014439284","3","RASUWA","Gosaikunda","111","Bhote koshi","75","2069/8/21","2104/8/20","Rasuwagadhi H P","85.37013889","28.25111111","Generation"
"Rawa Khola","Ghattekulo, Kathmandu , P.O.Box 20770, Phone 01-4244620","1","BHOJPUR","Salpasilichho","3","Rawa Khola","186","2073/11/26","2108/11/25","Rawa Energy Development Pvt Ltd","86.85152778","27.35041667","Generation"
"Rawa Khola HPP","Milanchok 34, Kathmandu, GPO Box: 12015, Tel; 01-4469270, Fax 01-4491475","1","SOLUKHUMBU","Dudhkaushika","6.5","Rawa Khola","112","2070/10/28","2105/10/27","Dudhkoshi Power Company Pvt Ltd","86.74805556","27.30583333","Generation"
"Rele Khola","SiphalKathmandu, Ph 4489327, 4491271","4","MYAGDI","Annapurna","6","Rele Khola","221","2074/10/28","2109/10/27","Hym Consult","83.68930556","28.52","Generation"
"Richet Khola SHP","Lalitpur-15, Mahalaxmisthan, phone no 5527469, 55237849, 9851006013, email: richethydro@gmail.com","3","DHADING","Rubi Valley","5","Richet","214","2074/9/4","2109/9/3","Richet Jalbidhyut Company Pvt. Ltd.","84.92347222","28.17569444","Generation"
"Rudi A","P.O.Box.10242, Newbaneswor, Kathmandu, phone 4781891, Fax 4785671","4","KASKI","Madi","8.8","Rudi Khola","109","2070/9/12","2105/9/11","Bindhabasini Hydropower Developmwnt Company Pvt.Ltd","84.2","28.25416667","Generation"
"Rudi Khola-B Hydropower Project","Naya Baneshwor, Kathmandu, P.O. Box no 10242, Phone no 4781891, Fax no 4785671, email: rudikhola@gmail.com","4","KASKI","Madi","6.6","Rudi Khola","199","2074/2/26","2109/2/25","Bindhyabasini Hydropower Development Co. Pvt Ltd","84.2","28.28736111","Generation"
"Rukum gad","Tripureshwor, Kathmandu, P. O. Box no 13961 Phone 014101140, 014251080","5","RUKUM_E","Putha Uttarganga","5","Rukum Gad","136","2072/3/9","2107/3/8","Rapti Hydro and General Construction Pvt. Ltd.","82.63763889","28.60361111","Generation"
"Rupse Khola","Buddha Nagar Kathmandu, Phone 014780675","4","MYAGDI","Annapurna","4","Rupse Khola","120","2071/1/5","2106/1/4","Research & Development Group","83.62402778","28.55138889","Generation"
"Ruru Banchu - 1","P.O.Box 8003, Kathmandu Phone no 01 4216573","6","JUMLA","Tila","16","Rurubanchu Khola","147","2072/6/27","2107/6/26","Mount Nilgiri Hydropower Company Pvt Ltd","81.78319444","29.10125","Generation"
"Ruru Banchu Khola- 2","Kalanki Kathmandu, Phone no 4426472, 9751089755","6","KALIKOT","Tilagufa","12","Rurubanchu Khola","178","2073/9/19","2108/9/18","Ruru hydroelectric Co Pvt. Ltd","81.75402778","29.10388889","Generation"
"Sabha Khola A","Old Baneshwor Kathmandu","1","SANKHUWASABHA","Chichila","8.3","Sabha Khola","128","2071/6/28","2106/6/27","Deepsabha Hydropower Pvt. Ltd.","87.25833333","27.37416667","Generation"
"Sabha Khola-B HPP","Dillibazar Kathmandu, Phone no 4438203, Email: pokhydropower@gmail.com","1","TAPLEJUNG","Meringden","15.1","Sabha Khola","187","2073/11/30","2108/11/29","Arbit Energy P Ltd","87.35333333","27.42972222","Generation"
"Saiti Khola Small","Pokhara-12, Kaski, phone no 9846517666","4","KASKI","Annapurna","0.999","Saiti","0","2074/10/18","0/0/1","Saiti Power Company Pvt. Ltd","83.89486111","28.36736111","Generation"
"Salankhu Khola","Samakhusi Town Planning-29, Kathmandu; GPO Box.: 8974; CPC Box : 044; Ph: 4390239, 4390240; email: salakhukhola@gmail.co","3","RASUWA","Kalika","2.5","Salankhu","107","2070/7/5","2105/7/4","Salankhu Khola Hydropower P. Ltd.","85.14583333","27.9875","Generation"
"Salleri Chialsa","Nayabazar, Salleri, Solukhumbu, Tel: 038-520210, 520220, Fax: 038-520260","1","SOLUKHUMBU","Solududhakunda","0.6","Solu Khola","0","2067/3/17","0/0/1","Salleri Chialsa Electricity Company Limited","86.57638889","27.48361111","Generation"
"Sanigad","Sukedhara, Rara Marg, Kathmandu, Po.Box. No. 13607/21399, Phone no: 01-4101652, 014101653, Email: info.ukhep@gmail.com","7","BAJHANG","Bungal","10.7","Sani Gad","153","2072/12/14","2107/12/13","Sanigad Hydro P Ltd","80.84375","29.63263889","Generation"
"Sanjen","P.O.Box 25210, Gyaneswor,Kathmandu, Phone 01-4443077, Fax 01- 4443076","3","RASUWA","Gosaikunda","42.5","Sanjen","55","2068/8/12","2103/8/11","Sanjen Jalvidyut Co.","85.28958333","28.2","Generation"
"Sanjen Khola","Bhagwati Bahal, Naksal, 1 Kathmandu, 01-4440433, 9861181164, info.salasungi@gmail.com","3","RASUWA","Parbati Kunda","78","Sanjen","160","2073/3/9","2108/3/8","Sala Sungi P Ltd","85.27791667","28.26347222","Generation"
"Sano Milti Khola SHP","Bansbari, Kathmandu, Phone no 012298250, email : smkhl@gmail.com","3","DOLAKHA","Melung","3","Milti","173","2073/6/9","2108/6/8","Sano Milti Khola Hydropower P.Ltd.","86.06111111","27.49902778","Generation"
"Sapsup Khola Small Hydro Electric Project","593/55 Kha Thapa Gaun, New Banesor-10, Kathmandu.4468423,9851105341","1","KHOTANG","Rupakot Majhuwagadhi","7.151","Sapsup Khola","211","2074/8/29","2109/8/28","Three Star Hydro Power Pvt.Ltd.","86.74763889","27.12569444","Generation"
"Saptang Khola HPP","Kathmandu-16, Naya Bazar, Tel:9851035832, 9851076449","3","NUWAKOT","Kispang","2.5","Saptang","215","2074/9/21","2109/9/20","Saptang Hydropower Pvt Ltd","85.10319444","28.00819444","Generation"
"Seti Khola HPP","Head Office ,Kathmandu Tel: 2093013, Fax: 4385668","4","PARBAT","Mahashila","3.5","Seti Khola","205","2074/5/26","2109/5/25","Parbat Paiyu Khola Hydropower Company","83.61875","28.0225","Generation"
"Siddhi Khola","New Baneshwor, Kathmandu, Nepal. Ph: 071 520460, 4464305, Po Box no 10678","1","ILAM","Suryodaya","10","Siddhi Khola","143","2072/6/13","2107/6/12","Lumbini Builders P. Ltd","88.14861111","26.83638889","Generation"
"Simrutu Khola","Rukum","6","RUKUM_W","Musikot","0.2","Simruth","0","2075/1/7","0/0/1","Simrutu Khola Jal Upvokta Samiti","82.44166667","28.58027778","Generation"
"Singati Khola hydropower project","Durbar Marg Kathmandu, Tel: 4228816, Fax : 977-1-4223570","3","DOLAKHA","Kalinchok","25","Singati","150","2072/9/30","2107/9/29","Singati Hydro Energy Pvt. Ltd.","86.14166667","27.76069444","Generation"
"Sisa Khola A Hydropower Project","Hattisar, Kathmandu, Tel: 44269, 4426942, Fax no 4426943, Po. Box no 660, Email ushec@info.com.np","1","SOLUKHUMBU","Dudhkaushika","2.8","Sisa","180","2073/9/22","2108/9/21","Upper Solu Hydroelectric Company Pvt Ltd","86.56625","27.44166667","Generation"
"Solu Hydropower Project","Hattisar, Kathmandu, Tel: 4434895, Fax: 4434937","1","SOLUKHUMBU","Solududhakunda","23.5","Solu Khola","117","2070/12/4","2105/12/3","Upper Solu Hydroelectric Company Pvt Ltd","86.57583333","27.4625","Generation"
"Solu Khola (Dudha Koshi)","Kathmandu-1, Hatisar Phone 01-4419182","1","SOLUKHUMBU","Dudhkoshi","86","Solu Khola","126","2071/6/2","2106/6/1","Sahas Urja Limited","86.65694444","27.39277778","Generation"
"Super Dordi Kha Hydropower Project","G.P.O. Box 14165 Maharajgunj Kathmandu, Phone 016222304 Fax 014720739","4","LAMJUNG","Dordi","49.6","Dordi","115","2070/11/21","2105/11/20","Peoples Hydropower Company Pvt.Ltd.","84.54305556","28.29208333","Generation"
"Super Madi","P.O.Box 12268, Kathmandu, Phone 01-5000032, 5000211","4","KASKI","Madi","44","Madi Khola","192","2073/12/17","2108/12/16","Himal Hydro and General Construction Ltd.","84.11097222","28.33902778","Generation"
"Super Mai Hydropower Project","Kathmandu -5, Tangal , Phone no 4470887, email: supermaihydropower@gmail.com","1","ILAM","Maijogmai","7.8","Mai Khola","188","2073/11/30","2108/11/29","Supermai Hydropower Pvt.Ltd.","87.95236111","26.95375","Generation"
"Super Mai-A HPP","168/22 Thapa Gaun, New Banesor-10, Kathmandu.42272949, 9851018025,9751000158","1","ILAM","Maijogmai","9.6","Mai Khola","224","2074/11/18","2109/11/17","Sagarmatha Jalbidhyut Company P.Ltd.","87.96694444","26.98430556","Generation"
"Super Nyadi Hydropower Project","GPO Box no 14165, Anamnagar Kathmandu, Tel 4223608, 4238159, email: supernyadi@siurihydro.com","4","LAMJUNG","Dordi","40.27","Nyadi","204","2074/5/14","2109/5/13","Siuri Nyadi Power Pvt. Ltd","84.47708333","28.37944444","Generation"
"Super Trishuli","GPO Box: 9609, Kathmandu, Nepal. Tel : 4216606, 4221305, email dibya.pant@gmail.com","4","GORKHA","Sahid Lakhan","100","Trishuli","218","2074/10/7","2109/10/6","Blue Energy Pvt. Ltd","84.62583333","27.84680556","Generation"
"Suri Khola","GPO Box: 8941 , Katmandu. Phone no 4117079","3","DOLAKHA","Gaurishankar","7","Suri","134","2072/2/24","2107/2/23","Suri Khola Hydropower Pvt Ltd","86.23333333","27.745","Generation"
"Tadi Khola","Kalopul,Kathmandu -5, POB : 21650, Ph no. 01-4220127, Fax 4226330","3","SINDHUPALCHOK","Helambu","5","Tadi Khola","51","2068/6/4","2103/6/3","Hiraratna hydropower Pvt. Ltd","85.39138889","27.94638889","Generation"
"Taksar Pikhuwa","Gairigaun, Tinkune, Kathmandu, Phone no 9851099478, 4495459, Email: taksarpikhuwahydropower@gmail.com","1","BHOJPUR","Pauwadungma","8","Pikhuwa","159","2073/3/3","2108/3/2","Taksar Pikhuwa Khola Hydropower Pvt. Ltd.","87.04930556","27.13027778","Generation"
"Tamakoshi V","Durbar Marg , Kathmandu","3","DOLAKHA","Gaurishankar","87","Tama Koshi","193","2074/2/9","2109/2/8","Tamakoshi hydropower Company Ltd.","86.20833333","27.79027778","Generation"
"Taman Khola","Tokha4358730, email tamankhydro@gmail.comKathmandu","4","BAGLUNG","Dhorpatan","4.85","Taman","227","2074/12/25","2109/12/24","Taman Khola Hydro Pvt. Ltd.","83.17541667","28.34402778","Generation"
"Tanahu HEP","4th Floor, Trade Tower, Thapathali, Kathmandu. Phone: 5111117, 5111118 Fax: 5111121, Email: info@thl.com.np","4","TANAHU","Ghiring","140","Seti Khola","157","2073/2/3","2108/2/2","Tanahu Hydropower Limited","84.17916667","27.95833333","Generation"
"Tanchhahara SHP","Phone no 01 4017783 P.O.Box 683, Bansabari Kathmandu","4","MUSTANG","Thasang","2.4","Tangchhahara","141","2072/4/29","2107/4/28","Tanchhar Hydro Pvt. Ltd.","83.59152778","28.67569444","Generation"
"Tara Khola Community (Mini) Hydropower Project","Tara-7, Bagling, 9847628615 (Bal B. KC)","4","MYAGDI","Malika","0.38","Tara Khola","0","2075/3/28","0/0/1","Tara Khola Community Small Hydropower Consumer Committee","83.37777778","28.33402778","Generation"
"Theule Khola HPP","Lakeside Pokhra-6, Tel: 061-520872,01-520872","4","PARBAT","Kushma","1.5","Theule","140","2072/3/28","2107/3/27","Barahi Hydropower Pvt Ltd","83.62722222","28.17916667","Generation"
"Tinekhu Khola SHP","Dhapakhel, Lalitpur, Ph: 01-5250671, 9851025052","3","DOLAKHA","Gaurishankar","0.99","Tinekhu","0","2074/5/26","0/0/1","Hydro Innovations Pvt. Ltd.","86.19666667","27.74291667","Generation"
"Trishuli Galchhi","P.O.Box 9106, Kathmandu, Phone 01-5111048, 9851156559Fax 01-4447895","3","NUWAKOT","Meghang","75","Trishuli","174","2073/7/1","2108/6/29","Siddhakali Power Pvt.Ltd","85.02291667","27.82777778","Generation"
"Upper Balephi A","Koteshwor 35 Kathamndu; P.O.Box 23189 Kathmandu, Phone 9771 4602073","3","SINDHUPALCHOK","Jugal","36","Balephi","163","2073/4/12","2108/4/11","Balephi Hydropower Ltd.","85.77638889","27.92291667","Generation"
"Upper Belkhu Small HPP","Battishputali Kathmandu, Ph: 9851079680","3","DHADING","Galchi","0.996","Belkhu","0","2074/10/29","0/0/1","Dariyal Small Hydropower Co. P Ltd.","84.95083333","27.73486111","Generation"
"Upper Chaku A","P.O.Box 13860 Kathmandu, Phone 01-4466330,","3","SINDHUPALCHOK","Bhotekoshi","22.2","Chaku","58","2068/11/12","2103/11/11","Shiva Sri Hydropower Pvt. Ltd","85.95083333","27.86694444","Generation"
"Upper Chauri Khola","P.O. Box:2919, Tel: 4477000, 4153055, 984382339, email: ghisingbuilders2049@gmail.com","3","KABHREPALANCHOK","Chaurideurali","6","Chauri","194","2074/1/29","2109/1/28","Himalayan Water Resources & Energy Development Co. P. Ltd","85.84916667","27.58513889","Generation"
"Upper Chhyandi Small HPP","Gairidhara-2, Kathmandu, 4426483, PO 19380","4","LAMJUNG","Dordi","4","Chhyangdi","233","2075/2/9","2110/2/8","Chhyandi Hysropower LTD","84.48819444","28.28208333","Generation"
"Upper Chirkuwa Khola","GPO Box: 19387 , Katmandu, phone no 4770297","1","SANKHUWASABHA","Khandbari","4.7","Chirkhuwa","185","2073/11/11","2108/11/10","Chirkhuwa Hydropower Company Pvt td","87.09444444","27.36569444","Generation"
"Upper Dordi A HEP","Thapathali-11, Kathmandu","4","LAMJUNG","Dudhpokhari","25","Dordi","121","2071/1/15","2106/1/14","Liberty Energy Hydropower Pvt. Ltd.","84.50625","28.26111111","Generation"
"Upper Gaddi Gad","Sukedhara, Kathmandu, Phone no 9851034375, email saileshwori.power.17@gmail.com","7","DOTI","Khaptad National Park","1.55","Gaddi Gad","225","2074/11/30","2109/11/29","Shaileshwari Power Nepal","81.07013889","29.28388889","Generation"
"Upper Hewa HPP","GPO Box: 14165, Kathmandu Tel: 4102757","1","TAPLEJUNG","Maiwakhola","8.5","Hewa Khola","133","2072/1/15","2107/1/14","Upper Hewa Khola Hydropower Company Pvt Ltd","87.36041667","27.33736111","Generation"
"Upper Jumdi Khola","P.O. Box: 3581, Ph: 4412112","4","BAGLUNG","Bareng","0.995","Jumdi","0","2069/11/15","0/0/1","Rishikesh Hydropower Pvt. Ltd.","83.45875","28.05208333","Generation"
"Upper Kalangad","Sukedhara, Rara Marg, Kathmandu, Po. Box. No. 13607/21399, Phone no. 01-4101652, 01-4101653, Email: info.ukhep@gmail.com","7","BAJHANG","Bungal","38.46","Kalanga Gad","152","2072/12/14","2107/12/13","Sani Gad Hydro pvt. Ltd","80.91527778","29.60930556","Generation"
"Upper Khadam SHP","Urlawari-4, Morang Tel: 021-540922, 9742031000","1","DHANKUTA","Chaubise","0.99","Khadam","0","2067/5/19","0/0/1","Abiral Hydropower Company Pvt. Ltd.","87.4375","26.83944444","Generation"
"Upper Khimti","Balkot-2 Bhaktapur, Phone 016632822","3","DOLAKHA","Jiri","12","Khimti Khola","77","2069/9/3","2104/9/2","Himalaya Urja Bikas Co. Pvt. Ltd.","86.34166667","27.6775","Generation"
"Upper Khimti II","G.P.O. Box: 10429 Ph: 4487794","3","DOLAKHA","Jiri","7","Khimti Khola","131","2071/12/13","2106/12/12","Himalaya Urja Bikash Company Limited","86.31944444","27.65208333","Generation"
"Upper Khorunga HPP","Bagbajar, Kathmandu, Po. Box. No. 14130, Phone no 4240661","1","TERHATHUM","Phedap","7.5","Khoranga Khola","168","2073/5/8","2106/11/6","Terhathum Power Company Pvt. Ltd.","87.53194444","27.21152778","Generation"
"Upper Khudi","P.O.Box 19554, Kathmandu, Phone 01-4434003, 4424644","4","LAMJUNG","Marsyangdi","26","Khudi","232","2075/2/9","2110/2/8","Super Khudi Hydropower Co.Pvt. Ltd.","84.32722222","28.335","Generation"
"Upper Lapche Khola","New Baneswor Kathmandu, GPO Box: 6870, Phone 9851025737, 4115573, 4115900","3","DOLAKHA","Bigu","52","Lapche","182","2073/10/21","2108/10/20","Energy Venture Pvt. Ltd.","86.17069444","28.08263889","Generation"
"Upper Mailun Khola","Baluwatar, Kathmandu, Nepal. Ph: 4436027, Fax: 4419703","3","DHADING","Rubi Valley","14.3","Mailung Khola","79","2069/9/20","2106/11/26","Upper Mailung Khola Hydropower Limited.","85.2","28.11611111","Generation"
"Upper Mailung -A","PO Box 9292,Ph 4915225","3","DHADING","Rubi Valley","6.42","Mailung Khola","56","2068/9/11","2103/9/10","Energy Engineering Pvt. Ltd","85.20833333","28.18541667","Generation"
"Upper Mardi Hydropower Project","Sanepa , Lalitpur Tel: 01-5520254, 52012027","4","KASKI","Machhapuchchhre","7","Mardi","181","2073/10/14","2108/5/31","United Idimardi and R.B. Hydropower Pvt Ltd","83.88791667","28.38694444","Generation"
"Upper Modi A","Durbarmarga, Kathmandu","4","KASKI","Machhapuchchhre","42","Modi Khola","135","2072/3/4","2107/3/3","Nepal Electricity Authority","83.80736111","28.3675","Generation"
"Upper Modi HPP cascade project","Kathmandu","4","KASKI","Annapurna","14","Modi Khola","226","2074/12/2","2109/12/1","Nepal Electricity Authority","83.78486111","28.32736111","Generation"
"Upper Myagdi","Bafal Sundhara, Kathmandu, P.O.Box 9713","4","MYAGDI","Raghuganga","20","Myagdi Khola","119","2070/12/6","2105/12/5","Hydro Empire P Ltd","83.37638889","28.53777778","Generation"
"Upper Naugad Gad Hydropower Project","Trade Tower, Thapathali, Kathmandu. Phone: 015511033, 015111037, Fax: 015111035","7","DARCHULA","Naugad","8","Naugad","177","2073/9/14","2108/9/14","Api Power Company Ltd.","80.63527778","29.73097222","Generation"
"Upper Nyasim Khola","Anamnagar, Kathmandu, Phone no. 4245184, 4238575, 9851010735, Email: sindhujwalahydropower@gmail.com","3","SINDHUPALCHOK","Bhotekoshi","43","Nyasem Khola","176","2073/8/7","2108/8/6","Sindhujwala Hydropower P. Ltd","85.82777778","28.00555556","Generation"
"Upper Piluwa Khola-2 SHP","PO Box no 8975 EPC 1030 Kathmandu, Phone no 4008602, 9843142092","1","SANKHUWASABHA","Panchakhapan","4.72","Piluwa Khola","149","2072/9/3","2107/9/2","Menchhiyam Hydropower P Ltd. Itahari,Sunsari,9841521159","87.39708333","27.29736111","Generation"
"Upper Sanjen","Das Tower Lazimpat, Kathmandu, 01-4002049, Fax 4443077","3","RASUWA","Gosaikunda","14.8","Sanjen","69","2069/5/7","2104/5/6","Sanjen Jalvidhyut Co","85.28958333","28.22847222","Generation"
"Upper Solu Khola HPP","0","1","SOLUKHUMBU","Solududhakunda","18","Solu Khola","169","2073/5/16","2106/11/16","Beni Hydropower Project","86.58138889","27.535","Generation"
"Upper Syange Khola SHP","Samakhusi, Kathmandu, P. O. Box: 8975, Phone: 4357646, Fax: 4354186","4","LAMJUNG","Marsyangdi","2.4","Syange","197","2074/2/22","2109/2/21","Upper Syange Hydropower Pvt. Ltd.","84.38916667","28.38916667","Generation"
"Upper Tadi","Anam Nagar Kathmandu, Phone 01-4770245, 01-4771285 Fax 01-4771109","3","NUWAKOT","Langtang National Park","11","Tadi Khola","144","2072/6/22","2107/6/21","Surya Kund Hydro Electric Pvt. Ltd.","85.43347222","27.97152778","Generation"
"Upper Tamakoshi HPP","Kathmandu,GPO Box: 26070 , Tel: 4420295, Fax: 4412569","3","DOLAKHA","Bigu","456","Tama Koshi","41","2067/8/17","2102/8/16","Upper Tamakoshi Hydropower Limited","86.21666667","27.88055556","Generation"
"Upper Tamor","P.O. Box: 19737, Ph: 4445952, Fax: 4425953","1","TAPLEJUNG","Phaktanglung","285","Tamor","234","2075/2/27","2110/2/26","Tamor Sanima Energy P. Ltd","87.74763889","27.46722222","Generation"
"Upper Trishuli 3A","Durbar Marg , Kathmandu","3","RASUWA","Kalika","60","Trishuli","43","2067/11/15","2102/11/14","Nepal Electricity Authority","85.19916667","28.04652778","Generation"
"Upper Trishuli 3B","0","3","RASUWA","Uttargaya","37","Trishuli","104","2070/4/27","2105/4/26","Nepal Electricity Authority","85.185","28.00458333","Generation"
"Upper Trishuli-1","Narayan Chaur, Naxal, Kathmandu P.O.Box: 786, Ph: 4412257, 4412229","3","RASUWA","Parbati Kunda","216","Trishuli","209","2074/7/23","2109/7/22","Nepal Water & Energy Development Co. P. Ltd","85.25597222","28.10125","Generation"
"Yambaling Khola","8461, Battisputali , Kathmandu Tel: 98511140280,014215238, email: ymlhydro@gmail.com","3","SINDHUPALCHOK","Jugal","7.271","Yambling","172","2073/6/9","2108/6/8","Yamling Hydropower Pvt Ltd","85.81180556","27.94666667","Generation"